[
  { "placeId": "the-castilian", "placeName": "The Castilian", "address": "2323 San Antonio St, Austin, TX 78705", "lat": 30.2871, "lng": -97.7429, "category": "Apartment" },
  { "placeId": "the-block-23rd", "placeName": "The Block on 23rd", "address": "706 W 23rd St, Austin, TX 78705", "lat": 30.2851, "lng": -97.7439, "category": "Apartment" },
  { "placeId": "callaway-house", "placeName": "The Callaway House", "address": "505 W 22nd St, Austin, TX 78705", "lat": 30.2856, "lng": -97.7437, "category": "Apartment" },
  { "placeId": "26-west", "placeName": "26 West (American Campus)", "address": "600 W 26th St, Austin, TX 78705", "lat": 30.2891, "lng": -97.7448, "category": "Apartment" },
  { "placeId": "regents-west-24th", "placeName": "Regents West at 24th", "address": "1180 W 24th St, Austin, TX 78705", "lat": 30.2881, "lng": -97.7470, "category": "Apartment" },
  { "placeId": "regents-west-gateway", "placeName": "Regents West at Gateway", "address": "1601 W 24th St, Austin, TX 78703", "lat": 30.2890, "lng": -97.7580, "category": "Apartment" },
  { "placeId": "axis-west-campus", "placeName": "Axis West Campus", "address": "2505 Longview St, Austin, TX 78705", "lat": 30.2860, "lng": -97.7486, "category": "Apartment" },
  { "placeId": "villas-on-guadalupe", "placeName": "Villas on Guadalupe", "address": "2815 Guadalupe St, Austin, TX 78705", "lat": 30.2948, "lng": -97.7428, "category": "Apartment" },
  { "placeId": "skyloft", "placeName": "Skyloft", "address": "507 W 23rd St, Austin, TX 78705", "lat": 30.2852, "lng": -97.7429, "category": "Apartment" },
  { "placeId": "nine-at-rio", "placeName": "The Nine at Rio", "address": "2518 Rio Grande St, Austin, TX 78705", "lat": 30.2868, "lng": -97.7475, "category": "Apartment" },
  { "placeId": "nine-at-west", "placeName": "The Nine at West", "address": "2515 Seton Ave, Austin, TX 78705", "lat": 30.2877, "lng": -97.7461, "category": "Apartment" },
  { "placeId": "21-rio", "placeName": "21 Rio", "address": "2101 Rio Grande St, Austin, TX 78705", "lat": 30.2845, "lng": -97.7452, "category": "Apartment" },
  { "placeId": "university-house", "placeName": "University House (UH)", "address": "210 E 21st St, Austin, TX 78705", "lat": 30.2843, "lng": -97.7428, "category": "Apartment" },
  { "placeId": "rio-west", "placeName": "Rio West", "address": "2704 Rio Grande St, Austin, TX 78705", "lat": 30.2902, "lng": -97.7478, "category": "Apartment" },
  { "placeId": "standard-austin", "placeName": "The Standard at Austin", "address": "1911 Rio Grande St, Austin, TX 78701", "lat": 30.2816, "lng": -97.7449, "category": "Apartment" },
  { "placeId": "ruckus-rio", "placeName": "The Ruckus on Rio", "address": "2502 Rio Grande St, Austin, TX 78705", "lat": 30.2863, "lng": -97.7472, "category": "Apartment" },
  { "placeId": "ruckus-nueces", "placeName": "The Ruckus on Nueces", "address": "2811 Nueces St, Austin, TX 78705", "lat": 30.2940, "lng": -97.7448, "category": "Apartment" },
  { "placeId": "texan-vintage-west", "placeName": "Texan & Vintage West", "address": "2505 Longview St, Austin, TX 78705", "lat": 30.2862, "lng": -97.7485, "category": "Apartment" },
  { "placeId": "villas-on-nueces", "placeName": "Villas on Nueces", "address": "2811 Nueces St, Austin, TX 78705", "lat": 30.2942, "lng": -97.7440, "category": "Apartment" },
  { "placeId": "2400-nueces", "placeName": "2400 Nueces (UT Off-Campus)", "address": "2400 Nueces St, Austin, TX 78705", "lat": 30.2905, "lng": -97.7441, "category": "Apartment" },
  { "placeId": "torre", "placeName": "Torre", "address": "2105 Nueces St, Austin, TX 78705", "lat": 30.2878, "lng": -97.7455, "category": "Apartment" },
  { "placeId": "aspen-west-campus", "placeName": "Aspen West Campus", "address": "1909 Rio Grande St, Austin, TX 78705", "lat": 30.2814, "lng": -97.7450, "category": "Apartment" },

  { "placeId": "ballpark-north", "placeName": "Ballpark North", "address": "4600 E Riverside Dr, Austin, TX 78741", "lat": 30.2334, "lng": -97.7079, "category": "Apartment" },
  { "placeId": "ballpark-south", "placeName": "Ballpark South", "address": "4600 E Riverside Dr, Austin, TX 78741", "lat": 30.2310, "lng": -97.7090, "category": "Apartment" },
  { "placeId": "university-estates", "placeName": "University Estates Riverside", "address": "1300 Crossing Pl, Austin, TX 78741", "lat": 30.2264, "lng": -97.7207, "category": "Apartment" },
  { "placeId": "connection-athens", "placeName": "The Connection at Athens", "address": "1930 Willow Creek Dr, Austin, TX 78741", "lat": 30.2303, "lng": -97.7101, "category": "Apartment" },
  { "placeId": "the-quad", "placeName": "The Quad", "address": "2400 Wickersham Ln, Austin, TX 78741", "lat": 30.2234, "lng": -97.7143, "category": "Apartment" },
  { "placeId": "town-lake-apartments", "placeName": "Town Lake Apartments", "address": "1155 W Cesar Chavez St, Austin, TX 78703", "lat": 30.2720, "lng": -97.7630, "category": "Apartment" },
  { "placeId": "axis-east-riverside", "placeName": "Axis East Riverside", "address": "1301 Crossing Pl, Austin, TX 78741", "lat": 30.2230, "lng": -97.7200, "category": "Apartment" },
  { "placeId": "nine-at-riverside", "placeName": "The Nine at Riverside", "address": "1831 S Lakeshore Blvd, Austin, TX 78741", "lat": 30.2438, "lng": -97.7270, "category": "Apartment" },

  { "placeId": "jester-east", "placeName": "Jester East", "address": "201 E 21st St, Austin, TX 78705", "lat": 30.2849, "lng": -97.7360, "category": "Dorm" },
  { "placeId": "jester-west", "placeName": "Jester West", "address": "201 E 21st St, Austin, TX 78705", "lat": 30.2847, "lng": -97.7372, "category": "Dorm" },
  { "placeId": "san-jac", "placeName": "San Jacinto Residence Hall", "address": "309 E 21st St, Austin, TX 78705", "lat": 30.2842, "lng": -97.7327, "category": "Dorm" },
  { "placeId": "kinsolving", "placeName": "Kinsolving", "address": "2605 Whitis Ave, Austin, TX 78705", "lat": 30.2906, "lng": -97.7378, "category": "Dorm" },
  { "placeId": "carothers", "placeName": "Carothers", "address": "2501 Whitis Ave, Austin, TX 78705", "lat": 30.2890, "lng": -97.7399, "category": "Dorm" },
  { "placeId": "moore-hill", "placeName": "Moore-Hill", "address": "214 E 21st St, Austin, TX 78705", "lat": 30.2832, "lng": -97.7367, "category": "Dorm" },
  { "placeId": "duren", "placeName": "Duren", "address": "2624 Whitis Ave, Austin, TX 78705", "lat": 30.2902, "lng": -97.7384, "category": "Dorm" },
  { "placeId": "littlefield", "placeName": "Littlefield", "address": "201 W 21st St, Austin, TX 78705", "lat": 30.2894, "lng": -97.7394, "category": "Dorm" },
  { "placeId": "andrews", "placeName": "Andrews", "address": "1915 Guadalupe St, Austin, TX 78705", "lat": 30.2893, "lng": -97.7397, "category": "Dorm" },
  { "placeId": "blanton", "placeName": "Blanton", "address": "1900 University Ave, Austin, TX 78705", "lat": 30.2891, "lng": -97.7396, "category": "Dorm" },
  { "placeId": "brackenridge", "placeName": "Brackenridge", "address": "207 E 21st St, Austin, TX 78705", "lat": 30.2890, "lng": -97.7405, "category": "Dorm" },
  { "placeId": "creekside", "placeName": "Creekside", "address": "1900 E Martin Luther King Jr Blvd, Austin, TX 78702", "lat": 30.2866, "lng": -97.7323, "category": "Dorm" },
  { "placeId": "whitis-court", "placeName": "Whitis Court", "address": "2401 Whitis Ave, Austin, TX 78705", "lat": 30.2900, "lng": -97.7409, "category": "Dorm" },

  { "placeId": "pcl", "placeName": "Perry-Castañeda Library (PCL)", "address": "101 E 21st St, Austin, TX 78712", "lat": 30.2839, "lng": -97.7380, "category": "Study" },
  { "placeId": "life-science-library", "placeName": "Life Science Library", "address": "Main Building, 110 Inner Campus Dr, Austin, TX 78712", "lat": 30.2861, "lng": -97.7394, "category": "Study" },
  { "placeId": "architecture-library", "placeName": "Architecture Library (Battle Hall)", "address": "302 Inner Campus Dr, Austin, TX 78712", "lat": 30.2869, "lng": -97.7393, "category": "Study" },
  { "placeId": "fine-arts-library", "placeName": "Fine Arts Library", "address": "2301 Trinity St, Austin, TX 78712", "lat": 30.2862, "lng": -97.7398, "category": "Study" },
  { "placeId": "eer-library", "placeName": "Engineering Library (EER)", "address": "2501 Speedway, Austin, TX 78712", "lat": 30.2896, "lng": -97.7356, "category": "Study" },
  { "placeId": "texas-union", "placeName": "Texas Union Study Lounges", "address": "2308 Whitis Ave, Austin, TX 78712", "lat": 30.2867, "lng": -97.7415, "category": "Study" },
  { "placeId": "welch-atrium", "placeName": "Welch Hall Atrium", "address": "105 E 24th St, Austin, TX 78712", "lat": 30.2892, "lng": -97.7372, "category": "Study" },

  { "placeId": "lucky-lab", "placeName": "Lucky Lab Coffee Co.", "address": "2222 Guadalupe St, Austin, TX 78705", "lat": 30.2848, "lng": -97.7427, "category": "Coffee" },
  { "placeId": "medici-guad", "placeName": "Caffe Medici (Guadalupe)", "address": "2222B Guadalupe St, Austin, TX 78705", "lat": 30.2846, "lng": -97.7421, "category": "Coffee" },
  { "placeId": "starbucks-union", "placeName": "Starbucks (Texas Union)", "address": "Texas Union, 2308 Whitis Ave, Austin, TX 78712", "lat": 30.2867, "lng": -97.7414, "category": "Coffee" },
  { "placeId": "kerbey-24th", "placeName": "Kerbey Lane Café (24th)", "address": "2606 Guadalupe St, Austin, TX 78705", "lat": 30.2921, "lng": -97.7428, "category": "Coffee" },
  { "placeId": "spider-house", "placeName": "Spider House Café", "address": "2908 Fruth St, Austin, TX 78705", "lat": 30.2964, "lng": -97.7429, "category": "Coffee" },
  { "placeId": "epoch-north-loop", "placeName": "Epoch Coffee (North Loop)", "address": "221 W North Loop Blvd, Austin, TX 78751", "lat": 30.3235, "lng": -97.7243, "category": "Coffee" },

  { "placeId": "gregory-gym", "placeName": "Gregory Gym (Greg)", "address": "2101 Speedway, Austin, TX 78712", "lat": 30.2836, "lng": -97.7373, "category": "Gym" },
  { "placeId": "recsports-center", "placeName": "RecSports Center (RSC)", "address": "2001 San Jacinto Blvd, Austin, TX 78712", "lat": 30.2830, "lng": -97.7361, "category": "Gym" },
  { "placeId": "wright-whitaker", "placeName": "Wright-Whitaker Sports Complex (Intramurals)", "address": "4901 Guadalupe St, Austin, TX 78751", "lat": 30.3240, "lng": -97.7362, "category": "Gym" },
  { "placeId": "clark-field", "placeName": "Clark Field", "address": "E 24th St & Red River St, Austin, TX 78712", "lat": 30.2822, "lng": -97.7336, "category": "Gym" },
  { "placeId": "waterloo-park", "placeName": "Waterloo Park", "address": "500 E 12th St, Austin, TX 78701", "lat": 30.2712, "lng": -97.7363, "category": "Social" },
  { "placeId": "pease-park", "placeName": "Pease Park", "address": "1100 Kingsbury St, Austin, TX 78703", "lat": 30.2895, "lng": -97.7509, "category": "Social" },

  { "placeId": "heb-riverside", "placeName": "H‑E‑B (Riverside)", "address": "2508 E Riverside Dr, Austin, TX 78741", "lat": 30.2386, "lng": -97.7206, "category": "Food" },
  { "placeId": "heb-hancock", "placeName": "H‑E‑B (Hancock Center)", "address": "1000 E 41st St, Austin, TX 78751", "lat": 30.3028, "lng": -97.7252, "category": "Food" },
  { "placeId": "target-dobie", "placeName": "Target (Dobie Center)", "address": "2021 Guadalupe St, Austin, TX 78705", "lat": 30.2843, "lng": -97.7428, "category": "Food" },
  { "placeId": "trader-joes", "placeName": "Trader Joe’s (Downtown)", "address": "211 Walter Seaholm Dr, Austin, TX 78701", "lat": 30.2704, "lng": -97.7516, "category": "Food" },
  { "placeId": "wheatsville", "placeName": "Wheatsville Co‑op", "address": "3101 Guadalupe St, Austin, TX 78705", "lat": 30.3059, "lng": -97.7390, "category": "Food" },
  { "placeId": "plaza-saltillo", "placeName": "Plaza Saltillo (Whole Foods & more)", "address": "901 E 5th St, Austin, TX 78702", "lat": 30.2649, "lng": -97.7332, "category": "Food" },
  { "placeId": "pluckers", "placeName": "Pluckers Wing Bar (The Drag)", "address": "2222 Rio Grande St, Austin, TX 78705", "lat": 30.2883, "lng": -97.7454, "category": "Food" },
  { "placeId": "roppolos", "placeName": "Roppolo’s Pizzeria (The Drag)", "address": "2605 Guadalupe St, Austin, TX 78705", "lat": 30.2920, "lng": -97.7426, "category": "Food" },
  { "placeId": "torchys", "placeName": "Torchy’s Tacos (The Drag)", "address": "2801 Guadalupe St, Austin, TX 78705", "lat": 30.2941, "lng": -97.7428, "category": "Food" },
  { "placeId": "halal-bros", "placeName": "Halal Bros (The Drag)", "address": "2712 Guadalupe St, Austin, TX 78705", "lat": 30.2916, "lng": -97.7428, "category": "Food" },
  { "placeId": "madam-mams", "placeName": "Madam Mam’s (The Drag)", "address": "2514 Guadalupe St, Austin, TX 78705", "lat": 30.2872, "lng": -97.7423, "category": "Food" }
] 